[{"city": "Ada", "region": "OK", "longitude": -96.6783449, "id": 4529096, "dma_code": 657, "latitude": 34.774531, "slug": "ada-ok"}, {"city": "Akron", "region": "OH", "longitude": -81.5190053, "id": 5173623, "dma_code": 510, "latitude": 41.0814447, "slug": "akron-oh"}, {"city": "Albany", "region": "GA", "longitude": -84.155741, "id": 4193753, "dma_code": 525, "latitude": 31.5785074, "slug": "albany-ga"}, {"city": "Alexandria", "region": "LA", "longitude": -92.4451371, "id": 4314550, "dma_code": 644, "latitude": 31.3112936, "slug": "alexandria-la"}, {"city": "Alpena", "region": "MI", "longitude": -83.4327528, "id": 4984075, "dma_code": 583, "latitude": 45.0616794, "slug": "alpena-mi"}, {"city": "Altoona", "region": "PA", "longitude": -78.3947359, "id": 5178195, "dma_code": 574, "latitude": 40.5186809, "slug": "altoona-pa"}, {"city": "Amarillo", "region": "TX", "longitude": -101.8312969, "id": 5516233, "dma_code": 634, "latitude": 35.2219971, "slug": "amarillo-tx"}, {"city": "Ames", "region": "IA", "longitude": -93.625622, "id": 4846834, "dma_code": 679, "latitude": 42.02335, "slug": "ames-ia"}, {"city": "Anchorage", "region": "AK", "longitude": -149.9002778, "id": 5876855, "dma_code": 743, "latitude": 61.2180556, "slug": "anchorage-ak"}, {"city": "Anderson", "region": "SC", "longitude": -82.6501332, "id": 4569298, "dma_code": 567, "latitude": 34.5034394, "slug": "anderson-sc"}, {"city": "Appleton", "region": "WI", "longitude": -88.4153847, "id": 5258575, "dma_code": 658, "latitude": 44.2619309, "slug": "appleton-wi"}, {"city": "Atlanta", "region": "GA", "longitude": -84.3879824, "id": 4180439, "dma_code": 524, "latitude": 33.7489954, "slug": "atlanta-ga"}, {"city": "Auburn", "region": "ME", "longitude": -70.2311655, "id": 4979200, "dma_code": 500, "latitude": 44.0978509, "slug": "auburn-me"}, {"city": "Augusta", "region": "GA", "longitude": -81.975, "id": 4570590, "dma_code": 520, "latitude": 33.47, "slug": "augusta-ga"}, {"city": "Austin", "region": "MN", "longitude": -92.9746367, "id": 5016884, "dma_code": 611, "latitude": 43.6666296, "slug": "austin-mn"}, {"city": "Austin", "region": "TX", "longitude": -97.7430608, "id": 4737316, "dma_code": 635, "latitude": 30.267153, "slug": "austin-tx"}, {"city": "Bakersfield", "region": "CA", "longitude": -119.0187125, "id": 5325738, "dma_code": 800, "latitude": 35.3732921, "slug": "bakersfield-ca"}, {"city": "Baltimore", "region": "MD", "longitude": -76.6121893, "id": 4364690, "dma_code": 512, "latitude": 39.2903848, "slug": "baltimore-md"}, {"city": "Bangor", "region": "ME", "longitude": -68.7778138, "id": 4957280, "dma_code": 537, "latitude": 44.8011821, "slug": "bangor-me"}, {"city": "Baton Rouge", "region": "LA", "longitude": -91.154551, "id": 4328044, "dma_code": 716, "latitude": 30.4507462, "slug": "baton-rouge-la"}, {"city": "Battle Creek", "region": "MI", "longitude": -85.1797142, "id": 4998703, "dma_code": 563, "latitude": 42.3211522, "slug": "battle-creek-mi"}, {"city": "Bay City", "region": "MI", "longitude": -83.8888647, "id": 4985180, "dma_code": 513, "latitude": 43.5944677, "slug": "bay-city-mi"}, {"city": "Bend", "region": "OR", "longitude": -121.3153096, "id": 5713587, "dma_code": 821, "latitude": 44.0581728, "slug": "bend-or"}, {"city": "Billings", "region": "MT", "longitude": -108.5006904, "id": 5640350, "dma_code": 756, "latitude": 45.7832856, "slug": "billings-mt"}, {"city": "Binghamton", "region": "NY", "longitude": -75.9179738, "id": 5109177, "dma_code": 502, "latitude": 42.0986867, "slug": "binghamton-ny"}, {"city": "Birmingham", "region": "AL", "longitude": -86.80249, "id": 4095415, "dma_code": 630, "latitude": 33.5206608, "slug": "birmingham-al"}, {"city": "Bloomington", "region": "IL", "longitude": -88.9936873, "id": 4903780, "dma_code": 675, "latitude": 40.4842027, "slug": "bloomington-il"}, {"city": "Boise", "region": "ID", "longitude": -116.237651, "id": 5595728, "dma_code": 757, "latitude": 43.613739, "slug": "boise-id"}, {"city": "Bowling Green", "region": "KY", "longitude": -86.4436018, "id": 4312732, "dma_code": 736, "latitude": 36.9903199, "slug": "bowling-green-ky"}, {"city": "Bozeman", "region": "MT", "longitude": -111.050499, "id": 5641727, "dma_code": 754, "latitude": 45.68346, "slug": "bozeman-mt"}, {"city": "Bryan", "region": "TX", "longitude": -96.3699632, "id": 4677008, "dma_code": 625, "latitude": 30.6743643, "slug": "bryan-tx"}, {"city": "Buffalo", "region": "NY", "longitude": -78.8783689, "id": 5110629, "dma_code": 514, "latitude": 42.8864468, "slug": "buffalo-ny"}, {"city": "Cadillac", "region": "MI", "longitude": -85.4011619, "id": 4987617, "dma_code": 540, "latitude": 44.2519526, "slug": "cadillac-mi"}, {"city": "Canton", "region": "OH", "longitude": -81.378447, "id": 5172936, "dma_code": 510, "latitude": 40.7989473, "slug": "canton-oh"}, {"city": "Champaign", "region": "IL", "longitude": -88.9548001, "id": 4236895, "dma_code": 648, "latitude": 39.8403147, "slug": "champaign-il"}, {"city": "Charleston", "region": "SC", "longitude": -79.9309216, "id": 4588165, "dma_code": 519, "latitude": 32.7765656, "slug": "charleston-sc"}, {"city": "Charlotte", "region": "NC", "longitude": -80.8431267, "id": 4460243, "dma_code": 517, "latitude": 35.2270869, "slug": "charlotte-nc"}, {"city": "Charlottesville", "region": "VA", "longitude": -78.4766781, "id": 4752031, "dma_code": 584, "latitude": 38.0293059, "slug": "charlottesville-va"}, {"city": "Chattanooga", "region": "TN", "longitude": -85.3096801, "id": 4652341, "dma_code": 575, "latitude": 35.0456297, "slug": "chattanooga-tn"}, {"city": "Chicago", "region": "IL", "longitude": -87.6500523, "id": 4904381, "dma_code": 602, "latitude": 41.850033, "slug": "chicago-il"}, {"city": "Cincinnati", "region": "OH", "longitude": -84.5030556, "id": 4288809, "dma_code": 515, "latitude": 39.1361111, "slug": "cincinnati-oh"}, {"city": "Cities", "region": "TN-VA", "longitude": -82.4106862, "id": 4607201, "dma_code": 531, "latitude": 36.472723, "slug": "cities-tn-va"}, {"city": "Columbia", "region": "SC", "longitude": -81.0348144, "id": 4575352, "dma_code": 546, "latitude": 34.0007104, "slug": "columbia-sc"}, {"city": "Columbus", "region": "GA", "longitude": -84.9877094, "id": 4188985, "dma_code": 522, "latitude": 32.4609764, "slug": "columbus-ga"}, {"city": "Columbus", "region": "OH", "longitude": -82.9987942, "id": 5177396, "dma_code": 535, "latitude": 39.9611755, "slug": "columbus-oh"}, {"city": "Corpus Christi", "region": "TX", "longitude": -97.396381, "id": 4683416, "dma_code": 600, "latitude": 27.8005828, "slug": "corpus-christi-tx"}, {"city": "Dayton", "region": "OH", "longitude": -84.1916069, "id": 4509884, "dma_code": 542, "latitude": 39.7589478, "slug": "dayton-oh"}, {"city": "Decatur", "region": "AL", "longitude": -86.9833417, "id": 4058553, "dma_code": 691, "latitude": 34.6059253, "slug": "decatur-al"}, {"city": "Decatur;", "region": "IL", "longitude": -88.9548001, "id": 4236895, "dma_code": 648, "latitude": 39.8403147, "slug": "decatur-il"}, {"city": "Denver", "region": "CO", "longitude": -104.9847034, "id": 5419396, "dma_code": 751, "latitude": 39.7391536, "slug": "denver-co"}, {"city": "Detroit", "region": "MI", "longitude": -83.0457538, "id": 5007247, "dma_code": 505, "latitude": 42.331427, "slug": "detroit-mi"}, {"city": "Dickinson", "region": "ND", "longitude": -102.7896242, "id": 5688789, "dma_code": 687, "latitude": 46.8791756, "slug": "dickinson-nd"}, {"city": "Dothan", "region": "AL", "longitude": -85.3904888, "id": 4068296, "dma_code": 606, "latitude": 31.2232313, "slug": "dothan-al"}, {"city": "Durham", "region": "NC", "longitude": -78.898619, "id": 4464374, "dma_code": 560, "latitude": 35.9940329, "slug": "durham-nc"}, {"city": "Eau Claire", "region": "WI", "longitude": -91.4984941, "id": 5251436, "dma_code": 702, "latitude": 44.811349, "slug": "eau-claire-wi"}, {"city": "El Centro", "region": "CA", "longitude": -115.5630514, "id": 5345609, "dma_code": 771, "latitude": 32.792, "slug": "el-centro-ca"}, {"city": "El Dorado", "region": "AR", "longitude": -92.665901, "id": 4109785, "dma_code": 628, "latitude": 33.210973, "slug": "el-dorado-ar"}, {"city": "El Paso", "region": "TX", "longitude": -106.4869314, "id": 7261282, "dma_code": 765, "latitude": 31.7587198, "slug": "el-paso-tx"}, {"city": "Elkhart", "region": "IN", "longitude": -85.9766671, "id": 4919987, "dma_code": 588, "latitude": 41.6819935, "slug": "elkhart-in"}, {"city": "Elmira", "region": "NY", "longitude": -76.8077338, "id": 5116497, "dma_code": 565, "latitude": 42.0897965, "slug": "elmira-ny"}, {"city": "Erie", "region": "PA", "longitude": -80.085059, "id": 5188843, "dma_code": 516, "latitude": 42.1292241, "slug": "erie-pa"}, {"city": "Eugene", "region": "OR", "longitude": -123.0867536, "id": 5725846, "dma_code": 801, "latitude": 44.0520691, "slug": "eugene-or"}, {"city": "Eureka", "region": "CA", "longitude": -124.1636729, "id": 5563397, "dma_code": 802, "latitude": 40.8020712, "slug": "eureka-ca"}, {"city": "Evansville", "region": "IN", "longitude": -87.5558482, "id": 4258909, "dma_code": 649, "latitude": 37.9747644, "slug": "evansville-in"}, {"city": "Fairbanks", "region": "AK", "longitude": -147.7163889, "id": 5861897, "dma_code": 745, "latitude": 64.8377778, "slug": "fairbanks-ak"}, {"city": "Fayetteville", "region": "NC", "longitude": -78.8783585, "id": 4466033, "dma_code": 560, "latitude": 35.0526641, "slug": "fayetteville-nc"}, {"city": "Florence", "region": "AL", "longitude": -87.677251, "id": 4089536, "dma_code": 691, "latitude": 34.79981, "slug": "florence-al"}, {"city": "Ft. Lauderdale", "region": "FL", "longitude": -80.1433786, "id": 4155966, "dma_code": 528, "latitude": 26.1223084, "slug": "ft-lauderdale-fl"}, {"city": "Ft. Pierce", "region": "FL", "longitude": -80.3256056, "id": 4156018, "dma_code": 548, "latitude": 27.4467056, "slug": "ft-pierce-fl"}, {"city": "Ft. Walton Beach", "region": "FL", "longitude": -86.618842, "id": 4156042, "dma_code": 686, "latitude": 30.4057552, "slug": "ft-walton-beach-fl"}, {"city": "Ft. Wayne", "region": "IN", "longitude": -85.1288597, "id": 4920423, "dma_code": 509, "latitude": 41.1306041, "slug": "ft-wayne-in"}, {"city": "Ft. Worth", "region": "TX", "longitude": -97.3208496, "id": 4688248, "dma_code": 623, "latitude": 32.725409, "slug": "ft-worth-tx"}, {"city": "Gainesville", "region": "FL", "longitude": -82.3248262, "id": 4156404, "dma_code": 592, "latitude": 29.6516344, "slug": "gainesville-fl"}, {"city": "Glendive", "region": "MT", "longitude": -104.710419, "id": 5654391, "dma_code": 798, "latitude": 47.108491, "slug": "glendive-mt"}, {"city": "Great Falls", "region": "MT", "longitude": -111.3008083, "id": 5655240, "dma_code": 755, "latitude": 47.5002354, "slug": "great-falls-mt"}, {"city": "Greenville", "region": "MS", "longitude": -91.0617735, "id": 4428475, "dma_code": 647, "latitude": 33.4101161, "slug": "greenville-ms"}, {"city": "Gulfport", "region": "MS", "longitude": -89.0928155, "id": 4450687, "dma_code": 746, "latitude": 30.3674198, "slug": "gulfport-ms"}, {"city": "Hagerstown", "region": "MD", "longitude": -77.7199932, "id": 4367036, "dma_code": 511, "latitude": 39.6417629, "slug": "hagerstown-md"}, {"city": "Harrisonburg", "region": "VA", "longitude": -78.8689155, "id": 4763231, "dma_code": 569, "latitude": 38.4495688, "slug": "harrisonburg-va"}, {"city": "Hartford", "region": "CT", "longitude": -72.6850932, "id": 4835797, "dma_code": 533, "latitude": 41.7637111, "slug": "hartford-ct"}, {"city": "Helena", "region": "MT", "longitude": -112.027031, "id": 5656882, "dma_code": 766, "latitude": 46.595805, "slug": "helena-mt"}, {"city": "Holyoke", "region": "MA", "longitude": -72.6162009, "id": 4945588, "dma_code": 543, "latitude": 42.2042586, "slug": "holyoke-ma"}, {"city": "Honolulu", "region": "HI", "longitude": -157.8583333, "id": 5856195, "dma_code": 744, "latitude": 21.3069444, "slug": "honolulu-hi"}, {"city": "Houston", "region": "TX", "longitude": -95.3830615, "id": 4699066, "dma_code": 618, "latitude": 29.7628844, "slug": "houston-tx"}, {"city": "Huntington", "region": "WV", "longitude": -82.445154, "id": 4809537, "dma_code": 564, "latitude": 38.4192496, "slug": "huntington-wv"}, {"city": "Hutchinson", "region": "KS", "longitude": -97.9297743, "id": 4273299, "dma_code": 678, "latitude": 38.0608445, "slug": "hutchinson-ks"}, {"city": "Indianapolis", "region": "IN", "longitude": -86.1580423, "id": 4260977, "dma_code": 527, "latitude": 39.7683765, "slug": "indianapolis-in"}, {"city": "Iowa City", "region": "IA", "longitude": -91.5162792, "id": 4862034, "dma_code": 637, "latitude": 41.677204, "slug": "iowa-city-ia"}, {"city": "Jackson", "region": "TN", "longitude": -88.8139469, "id": 4632595, "dma_code": 639, "latitude": 35.6145169, "slug": "jackson-tn"}, {"city": "Jackson", "region": "MS", "longitude": -90.1848103, "id": 4443249, "dma_code": 718, "latitude": 32.2987573, "slug": "jackson-ms"}, {"city": "Jacksonville", "region": "FL", "longitude": -81.655651, "id": 4160021, "dma_code": 561, "latitude": 30.3321838, "slug": "jacksonville-fl"}, {"city": "Jefferson City", "region": "MO", "longitude": -92.1735164, "id": 4392388, "dma_code": 604, "latitude": 38.5767017, "slug": "jefferson-city-mo"}, {"city": "Jonesboro", "region": "AR", "longitude": -90.704279, "id": 4106979, "dma_code": 734, "latitude": 35.8422967, "slug": "jonesboro-ar"}, {"city": "Juneau", "region": "AK", "longitude": -134.4197222, "id": 5558405, "dma_code": 747, "latitude": 58.3019444, "slug": "juneau-ak"}, {"city": "Kansas City", "region": "MO", "longitude": -94.5785667, "id": 4393217, "dma_code": 616, "latitude": 39.0997265, "slug": "kansas-city-mo"}, {"city": "Kearney", "region": "NE", "longitude": -99.083107, "id": 5071348, "dma_code": 722, "latitude": 40.699959, "slug": "kearney-ne"}, {"city": "Kennewick", "region": "WA", "longitude": -119.1372338, "id": 5806298, "dma_code": 810, "latitude": 46.2112458, "slug": "kennewick-wa"}, {"city": "Keokuk", "region": "IA", "longitude": -91.394372, "id": 4863349, "dma_code": 717, "latitude": 40.402525, "slug": "keokuk-ia"}, {"city": "Kirksville", "region": "MO", "longitude": -92.5832496, "id": 5055787, "dma_code": 631, "latitude": 40.1947539, "slug": "kirksville-mo"}, {"city": "Klamath Falls", "region": "OR", "longitude": -121.7816704, "id": 5735238, "dma_code": 813, "latitude": 42.224867, "slug": "klamath-falls-or"}, {"city": "Knoxville", "region": "TN", "longitude": -83.9207392, "id": 4634946, "dma_code": 557, "latitude": 35.9606384, "slug": "knoxville-tn"}, {"city": "Lafayette", "region": "IN", "longitude": -86.8752869, "id": 4926956, "dma_code": 582, "latitude": 40.4167022, "slug": "lafayette-in"}, {"city": "Lafayette", "region": "LA", "longitude": -92.0198427, "id": 4330145, "dma_code": 642, "latitude": 30.2240897, "slug": "lafayette-la"}, {"city": "Lake Charles", "region": "LA", "longitude": -93.2173758, "id": 4338068, "dma_code": 643, "latitude": 30.2265949, "slug": "lake-charles-la"}, {"city": "Lansing", "region": "MI", "longitude": -84.5555347, "id": 4998830, "dma_code": 551, "latitude": 42.732535, "slug": "lansing-mi"}, {"city": "Laredo", "region": "TX", "longitude": -99.5075421, "id": 3522551, "dma_code": 749, "latitude": 27.506407, "slug": "laredo-tx"}, {"city": "Las Vegas", "region": "NV", "longitude": -115.172816, "id": 5515345, "dma_code": 839, "latitude": 36.114646, "slug": "las-vegas-nv"}, {"city": "Laurel", "region": "MS", "longitude": -89.1306124, "id": 4433039, "dma_code": 710, "latitude": 31.6940509, "slug": "laurel-ms"}, {"city": "Lawton", "region": "OK", "longitude": -98.3903305, "id": 4529531, "dma_code": 627, "latitude": 34.6086854, "slug": "lawton-ok"}, {"city": "Lexington", "region": "KY", "longitude": -84.4951359, "id": 4297983, "dma_code": 541, "latitude": 38.0317136, "slug": "lexington-ky"}, {"city": "Lima", "region": "OH", "longitude": -84.1052256, "id": 5160783, "dma_code": 558, "latitude": 40.742551, "slug": "lima-oh"}, {"city": "Longview", "region": "TX", "longitude": -94.7404891, "id": 4707814, "dma_code": 709, "latitude": 32.5007037, "slug": "longview-tx"}, {"city": "Los Angeles", "region": "CA", "longitude": -118.2436849, "id": 5352423, "dma_code": 803, "latitude": 34.0522342, "slug": "los-angeles-ca"}, {"city": "Louisville", "region": "KY", "longitude": -85.759407, "id": 4262045, "dma_code": 529, "latitude": 38.2542376, "slug": "louisville-ky"}, {"city": "Lubbock", "region": "TX", "longitude": -101.8551665, "id": 5525577, "dma_code": 651, "latitude": 33.5778631, "slug": "lubbock-tx"}, {"city": "Lufkin", "region": "TX", "longitude": -94.729097, "id": 4708308, "dma_code": 709, "latitude": 31.3382406, "slug": "lufkin-tx"}, {"city": "Lynchburg", "region": "VA", "longitude": -79.1422464, "id": 4771247, "dma_code": 573, "latitude": 37.4137536, "slug": "lynchburg-va"}, {"city": "Macon", "region": "GA", "longitude": -83.6324022, "id": 4207400, "dma_code": 503, "latitude": 32.8406946, "slug": "macon-ga"}, {"city": "Madison", "region": "WI", "longitude": -89.4012302, "id": 5261457, "dma_code": 669, "latitude": 43.0730517, "slug": "madison-wi"}, {"city": "Manchester", "region": "NH", "longitude": -71.4547891, "id": 5089178, "dma_code": 506, "latitude": 42.9956397, "slug": "manchester-nh"}, {"city": "Mankato", "region": "MN", "longitude": -93.9993996, "id": 5036420, "dma_code": 737, "latitude": 44.1635775, "slug": "mankato-mn"}, {"city": "Marquette", "region": "MI", "longitude": -87.395417, "id": 5000947, "dma_code": 553, "latitude": 46.5435442, "slug": "marquette-mi"}, {"city": "McAllen", "region": "TX", "longitude": -98.2300124, "id": 4718721, "dma_code": 636, "latitude": 26.2034071, "slug": "mcallen-tx"}, {"city": "Melbourne", "region": "FL", "longitude": -80.6081089, "id": 4163971, "dma_code": 534, "latitude": 28.0836269, "slug": "melbourne-fl"}, {"city": "Memphis", "region": "TN", "longitude": -90.0489801, "id": 4641239, "dma_code": 640, "latitude": 35.1495343, "slug": "memphis-tn"}, {"city": "Meridian", "region": "MS", "longitude": -88.703656, "id": 4435764, "dma_code": 711, "latitude": 32.3643098, "slug": "meridian-ms"}, {"city": "Midland", "region": "TX", "longitude": -102.0779146, "id": 5526337, "dma_code": 633, "latitude": 31.9973456, "slug": "midland-tx"}, {"city": "Milwaukee", "region": "WI", "longitude": -87.9064736, "id": 5249871, "dma_code": 617, "latitude": 43.0389025, "slug": "milwaukee-wi"}, {"city": "Missoula", "region": "MT", "longitude": -113.9939982, "id": 5666639, "dma_code": 762, "latitude": 46.872146, "slug": "missoula-mt"}, {"city": "Mitchell", "region": "SD", "longitude": -98.0297992, "id": 5229794, "dma_code": 725, "latitude": 43.7094283, "slug": "mitchell-sd"}, {"city": "Modesto", "region": "CA", "longitude": -120.9968782, "id": 5398597, "dma_code": 862, "latitude": 37.6390972, "slug": "modesto-ca"}, {"city": "Moline", "region": "IL", "longitude": -90.5151342, "id": 4893267, "dma_code": 682, "latitude": 41.5067003, "slug": "moline-il"}, {"city": "Montgomery", "region": "AL", "longitude": -86.2999689, "id": 4076784, "dma_code": 698, "latitude": 32.3668052, "slug": "montgomery-al"}, {"city": "Montrose", "region": "CO", "longitude": -107.8761738, "id": 5431710, "dma_code": 773, "latitude": 38.4783198, "slug": "montrose-co"}, {"city": "Mount Vernon", "region": "IL", "longitude": -88.9031201, "id": 4241773, "dma_code": 632, "latitude": 38.3172714, "slug": "mount-vernon-il"}, {"city": "Myrtle Beach", "region": "SC", "longitude": -78.8866943, "id": 4588718, "dma_code": 570, "latitude": 33.6890603, "slug": "myrtle-beach-sc"}, {"city": "Nacogdoches", "region": "TX", "longitude": -94.6554874, "id": 4692292, "dma_code": 709, "latitude": 31.6035129, "slug": "nacogdoches-tx"}, {"city": "Naples", "region": "FL", "longitude": -81.7948103, "id": 4154031, "dma_code": 571, "latitude": 26.1420358, "slug": "naples-fl"}, {"city": "Nashville", "region": "TN", "longitude": -86.7844432, "id": 4644585, "dma_code": 659, "latitude": 36.1658899, "slug": "nashville-tn"}, {"city": "New Bedford", "region": "MA", "longitude": -70.934205, "id": 4945121, "dma_code": 521, "latitude": 41.6362152, "slug": "new-bedford-ma"}, {"city": "New Haven", "region": "CT", "longitude": -72.9281577, "id": 4839366, "dma_code": 533, "latitude": 41.3081527, "slug": "new-haven-ct"}, {"city": "New Orleans", "region": "LA", "longitude": -90.0705556, "id": 4335045, "dma_code": 622, "latitude": 29.9647222, "slug": "new-orleans-la"}, {"city": "New York", "region": "NY", "longitude": -74.0059729, "id": 5128581, "dma_code": 501, "latitude": 40.7142691, "slug": "new-york-ny"}, {"city": "Newport News", "region": "VA", "longitude": -76.428003, "id": 4776024, "dma_code": 544, "latitude": 36.9787588, "slug": "newport-news-va"}, {"city": "North Platte", "region": "NE", "longitude": -100.7654232, "id": 5697939, "dma_code": 740, "latitude": 41.1238873, "slug": "north-platte-ne"}, {"city": "Oak Hill", "region": "WV", "longitude": -81.1487135, "id": 4816993, "dma_code": 559, "latitude": 37.9723339, "slug": "oak-hill-wv"}, {"city": "Oklahoma City", "region": "OK", "longitude": -97.5164276, "id": 4544379, "dma_code": 650, "latitude": 35.4675602, "slug": "oklahoma-city-ok"}, {"city": "Omaha", "region": "NE", "longitude": -95.999258, "id": 5075972, "dma_code": 652, "latitude": 41.254006, "slug": "omaha-ne"}, {"city": "Palm Springs", "region": "CA", "longitude": -116.5452921, "id": 5380668, "dma_code": 804, "latitude": 33.8302961, "slug": "palm-springs-ca"}, {"city": "Panama City", "region": "FL", "longitude": -85.6602058, "id": 4176277, "dma_code": 656, "latitude": 30.1588129, "slug": "panama-city-fl"}, {"city": "Parkersburg", "region": "WV", "longitude": -81.5615135, "id": 4817641, "dma_code": 597, "latitude": 39.2667418, "slug": "parkersburg-wv"}, {"city": "Pensacola ", "region": "FL", "longitude": -87.2169149, "id": 4168228, "dma_code": 686, "latitude": 30.421309, "slug": "pensacola-fl"}, {"city": "Pensacola", "region": "FL", "longitude": -87.2169149, "id": 4168228, "dma_code": 686, "latitude": 30.421309, "slug": "pensacola-fl"}, {"city": "Petersburg", "region": "VA", "longitude": -77.4019267, "id": 4778626, "dma_code": 556, "latitude": 37.2279279, "slug": "petersburg-va"}, {"city": "Philadelphia", "region": "PA", "longitude": -75.163789, "id": 4560349, "dma_code": 504, "latitude": 39.952335, "slug": "philadelphia-pa"}, {"city": "Phoenix", "region": "AZ", "longitude": -112.0740373, "id": 5308655, "dma_code": 753, "latitude": 33.4483771, "slug": "phoenix-az"}, {"city": "Pine Bluff", "region": "AR", "longitude": -92.0031955, "id": 4126226, "dma_code": 693, "latitude": 34.2284312, "slug": "pine-bluff-ar"}, {"city": "Pittsburg", "region": "KS", "longitude": -94.70496, "id": 4277241, "dma_code": 603, "latitude": 37.410884, "slug": "pittsburg-ks"}, {"city": "Pittsburgh", "region": "PA", "longitude": -79.9958864, "id": 5183428, "dma_code": 508, "latitude": 40.4406248, "slug": "pittsburgh-pa"}, {"city": "Plattsburgh", "region": "NY", "longitude": -73.4529124, "id": 5131692, "dma_code": 523, "latitude": 44.6994873, "slug": "plattsburgh-ny"}, {"city": "Pocatello", "region": "ID", "longitude": -112.4455344, "id": 5588842, "dma_code": 758, "latitude": 42.8713032, "slug": "pocatello-id"}, {"city": "Port Arthur", "region": "TX", "longitude": -93.939947, "id": 4720039, "dma_code": 692, "latitude": 29.8849504, "slug": "port-arthur-tx"}, {"city": "Portland", "region": "OR", "longitude": -122.6762071, "id": 5746545, "dma_code": 820, "latitude": 45.5234515, "slug": "portland-or"}, {"city": "Presque Isle", "region": "ME", "longitude": -68.0158615, "id": 4975966, "dma_code": 552, "latitude": 46.681153, "slug": "presque-isle-me"}, {"city": "Pueblo", "region": "CO", "longitude": -104.6091409, "id": 5435464, "dma_code": 752, "latitude": 38.2544472, "slug": "pueblo-co"}, {"city": "Rapid City", "region": "SD", "longitude": -103.2310149, "id": 5768233, "dma_code": 764, "latitude": 44.0805434, "slug": "rapid-city-sd"}, {"city": "Redding", "region": "CA", "longitude": -122.3916754, "id": 5570160, "dma_code": 868, "latitude": 40.5865396, "slug": "redding-ca"}, {"city": "Reno", "region": "NV", "longitude": -119.8138027, "id": 5512862, "dma_code": 811, "latitude": 39.5296329, "slug": "reno-nv"}, {"city": "Rhinelander", "region": "WI", "longitude": -89.4120753, "id": 5268720, "dma_code": 705, "latitude": 45.6366228, "slug": "rhinelander-wi"}, {"city": "Riverton", "region": "WY", "longitude": -108.3801036, "id": 5836665, "dma_code": 767, "latitude": 43.0249592, "slug": "riverton-wy"}, {"city": "Rochester", "region": "NY", "longitude": -77.6155567, "id": 5134086, "dma_code": 538, "latitude": 43.1547845, "slug": "rochester-ny"}, {"city": "Rockford", "region": "IL", "longitude": -89.0939952, "id": 4907959, "dma_code": 610, "latitude": 42.2711311, "slug": "rockford-il"}, {"city": "Rogers", "region": "AR", "longitude": -94.1185366, "id": 4128894, "dma_code": 670, "latitude": 36.3320196, "slug": "rogers-ar"}, {"city": "Salinas", "region": "CA", "longitude": -121.6555013, "id": 5398168, "dma_code": 828, "latitude": 36.6777372, "slug": "salinas-ca"}, {"city": "Salisbury", "region": "MD", "longitude": -75.5993692, "id": 4368711, "dma_code": 576, "latitude": 38.3606736, "slug": "salisbury-md"}, {"city": "Salt Lake City", "region": "UT", "longitude": -111.8910474, "id": 5780993, "dma_code": 770, "latitude": 40.7607793, "slug": "salt-lake-city-ut"}, {"city": "San Angelo", "region": "TX", "longitude": -100.4370375, "id": 5530022, "dma_code": 661, "latitude": 31.4637723, "slug": "san-angelo-tx"}, {"city": "San Antonio", "region": "TX", "longitude": -98.4936282, "id": 4726206, "dma_code": 641, "latitude": 29.4241219, "slug": "san-antonio-tx"}, {"city": "San Diego", "region": "CA", "longitude": -117.1572551, "id": 5339663, "dma_code": 825, "latitude": 32.7153292, "slug": "san-diego-ca"}, {"city": "San Jose", "region": "CA", "longitude": -121.8949555, "id": 5392171, "dma_code": 807, "latitude": 37.3393857, "slug": "san-jose-ca"}, {"city": "San Luis Obispo", "region": "CA", "longitude": -120.6596156, "id": 5392323, "dma_code": 855, "latitude": 35.2827524, "slug": "san-luis-obispo-ca"}, {"city": "Santa Fe", "region": "NM", "longitude": -105.937799, "id": 5490263, "dma_code": 790, "latitude": 35.6869752, "slug": "santa-fe-nm"}, {"city": "Sarasota", "region": "FL", "longitude": -82.5306527, "id": 4156340, "dma_code": 539, "latitude": 27.3364347, "slug": "sarasota-fl"}, {"city": "Savannah", "region": "GA", "longitude": -81.0998342, "id": 4221552, "dma_code": 507, "latitude": 32.0835407, "slug": "savannah-ga"}, {"city": "Scottsbluff", "region": "NE", "longitude": -103.660709, "id": 5699404, "dma_code": 759, "latitude": 41.86714, "slug": "scottsbluff-ne"}, {"city": "Scranton", "region": "PA", "longitude": -75.6624122, "id": 5211303, "dma_code": 577, "latitude": 41.408969, "slug": "scranton-pa"}, {"city": "Selma", "region": "AL", "longitude": -87.0211007, "id": 4089114, "dma_code": 698, "latitude": 32.4073589, "slug": "selma-al"}, {"city": "Shreveport", "region": "LA", "longitude": -93.7501789, "id": 4341513, "dma_code": 612, "latitude": 32.5251516, "slug": "shreveport-la"}, {"city": "Sierra Vista", "region": "AZ", "longitude": -110.2772856, "id": 5314328, "dma_code": 789, "latitude": 31.5455001, "slug": "sierra-vista-az"}, {"city": "Sioux City", "region": "IA", "longitude": -96.4003069, "id": 5079250, "dma_code": 624, "latitude": 42.4999942, "slug": "sioux-city-ia"}, {"city": "Sioux Falls", "region": "SD", "longitude": -96.700327, "id": 5229584, "dma_code": 725, "latitude": 43.5499749, "slug": "sioux-falls-sd"}, {"city": "Spokane", "region": "WA", "longitude": -117.4260466, "id": 5811696, "dma_code": 881, "latitude": 47.6587802, "slug": "spokane-wa"}, {"city": "Springfield", "region": "MO", "longitude": -93.2982436, "id": 4409896, "dma_code": 619, "latitude": 37.215326, "slug": "springfield-mo"}, {"city": "Springfield", "region": "IL", "longitude": -88.9548001, "id": 4236895, "dma_code": 648, "latitude": 39.8403147, "slug": "springfield-il"}, {"city": "St. Joseph", "region": "MO", "longitude": -94.8363889, "id": 4407010, "dma_code": 638, "latitude": 39.7577778, "slug": "st-joseph-mo"}, {"city": "St. Louis", "region": "MO", "longitude": -90.224967, "id": 4243740, "dma_code": 609, "latitude": 38.646991, "slug": "st-louis-mo"}, {"city": "St. Paul", "region": "MN", "longitude": -93.086075, "id": 5052467, "dma_code": 613, "latitude": 44.944167, "slug": "st-paul-mn"}, {"city": "St. Petersburg", "region": "FL", "longitude": -82.667619, "id": 4177960, "dma_code": 539, "latitude": 27.782254, "slug": "st-petersburg-fl"}, {"city": "Steubenville", "region": "OH", "longitude": -80.6339638, "id": 5280814, "dma_code": 554, "latitude": 40.3697905, "slug": "steubenville-oh"}, {"city": "Superior", "region": "WI", "longitude": -92.1040796, "id": 5275191, "dma_code": 676, "latitude": 46.7207737, "slug": "superior-wi"}, {"city": "Sweetwater", "region": "TX", "longitude": -100.4059384, "id": 5531968, "dma_code": 662, "latitude": 32.4709519, "slug": "sweetwater-tx"}, {"city": "Syracuse", "region": "NY", "longitude": -76.1474244, "id": 5126246, "dma_code": 555, "latitude": 43.0481221, "slug": "syracuse-ny"}, {"city": "Tacoma", "region": "WA", "longitude": -122.4442906, "id": 5794330, "dma_code": 819, "latitude": 47.2528768, "slug": "tacoma-wa"}, {"city": "Terre Haute", "region": "IN", "longitude": -87.4139092, "id": 4262311, "dma_code": 581, "latitude": 39.4667034, "slug": "terre-haute-in"}, {"city": "Thomasville", "region": "GA", "longitude": -83.9787808, "id": 4226348, "dma_code": 530, "latitude": 30.8365815, "slug": "thomasville-ga"}, {"city": "Toledo", "region": "OH", "longitude": -83.555212, "id": 4998769, "dma_code": 547, "latitude": 41.6639383, "slug": "toledo-oh"}, {"city": "Topeka", "region": "KS", "longitude": -95.6780371, "id": 4280539, "dma_code": 605, "latitude": 39.0483336, "slug": "topeka-ks"}, {"city": "Troy", "region": "NY", "longitude": -73.6917851, "id": 5145157, "dma_code": 532, "latitude": 42.7284117, "slug": "troy-ny"}, {"city": "Tucson", "region": "AZ", "longitude": -110.926479, "id": 5319417, "dma_code": 789, "latitude": 32.2217429, "slug": "tucson-az"}, {"city": "Tulsa", "region": "OK", "longitude": -95.992775, "id": 4553433, "dma_code": 671, "latitude": 36.1539816, "slug": "tulsa-ok"}, {"city": "Twin Falls", "region": "ID", "longitude": -114.4608711, "id": 5610810, "dma_code": 760, "latitude": 42.5629668, "slug": "twin-falls-id"}, {"city": "Utica", "region": "NY", "longitude": -75.232664, "id": 5142056, "dma_code": 526, "latitude": 43.100903, "slug": "utica-ny"}, {"city": "Valley City", "region": "ND", "longitude": -98.0031547, "id": 5062292, "dma_code": 724, "latitude": 46.9233129, "slug": "valley-city-nd"}, {"city": "Victoria", "region": "TX", "longitude": -97.0035982, "id": 4739157, "dma_code": 626, "latitude": 28.8052674, "slug": "victoria-tx"}, {"city": "Visalia", "region": "CA", "longitude": -119.2920585, "id": 5406567, "dma_code": 866, "latitude": 36.3302284, "slug": "visalia-ca"}, {"city": "Washington DC ", "region": "MD", "longitude": -77.0363658, "id": 4138106, "dma_code": 511, "latitude": 38.8951118, "slug": "washington-dc-md"}, {"city": "Washington", "region": "NC", "longitude": -77.0521742, "id": 4497666, "dma_code": 545, "latitude": 35.5465517, "slug": "washington-nc"}, {"city": "Watertown", "region": "NY", "longitude": -75.9107565, "id": 5143396, "dma_code": 549, "latitude": 43.9747838, "slug": "watertown-ny"}, {"city": "West Point", "region": "MS", "longitude": -88.6503254, "id": 4450753, "dma_code": 673, "latitude": 33.6076186, "slug": "west-point-ms"}, {"city": "Weston", "region": "WV", "longitude": -80.467313, "id": 4826882, "dma_code": 598, "latitude": 39.0384274, "slug": "weston-wv"}, {"city": "Wichita Falls", "region": "OK", "longitude": -98.3088441, "id": 4681782, "dma_code": 627, "latitude": 33.6953791, "slug": "wichita-falls-ok"}, {"city": "Williston", "region": "ND", "longitude": -103.6179745, "id": 5692947, "dma_code": 687, "latitude": 48.1469683, "slug": "williston-nd"}, {"city": "Wilmington", "region": "NC", "longitude": -77.9447102, "id": 4481757, "dma_code": 550, "latitude": 34.2257255, "slug": "wilmington-nc"}, {"city": "Winston Salem", "region": "NC", "longitude": -80.244216, "id": 4499612, "dma_code": 518, "latitude": 36.0998596, "slug": "winston-salem-nc"}, {"city": "York", "region": "PA", "longitude": -76.727745, "id": 4562441, "dma_code": 566, "latitude": 39.9625984, "slug": "york-pa"}, {"city": "Youngstown", "region": "OH", "longitude": -80.6495194, "id": 5177568, "dma_code": 536, "latitude": 41.0997803, "slug": "youngstown-oh"}, {"city": "Zanesville", "region": "OH", "longitude": -82.0131924, "id": 4525137, "dma_code": 596, "latitude": 39.9403453, "slug": "zanesville-oh"}]